[{"position":{"lat":51.4700223,"lng":-0.45429549999994},"title":"London","Airline":"British Airways","Filters":{"Routes":{"Direct":true,"Charter":false},"Seasons":{"Summer":false,"Winter":true}},"Weekdays":39,"Buttons":[{"MarkerButtonName":"Buy","0":"Buy","URL":"http:\/\/google.com","1":"http:\/\/google.com"},{"MarkerButtonName":"Visit","0":"Visit","URL":"http:\/\/yahoo.com","1":"http:\/\/yahoo.com"}]},{"position":{"lat":40.46121,"lng":-3.5792300000001},"title":"Madrid","Airline":"Ryan Air","Filters":{"Routes":{"Direct":false,"Charter":true},"Seasons":{"Summer":true,"Winter":false}},"Weekdays":96,"Buttons":[{"MarkerButtonName":"Buy","0":"Buy","URL":"http:\/\/google.com","1":"http:\/\/google.com"}]},{"position":{"lat":40.9829888,"lng":28.8104425},"title":"Istanbul","Airline":"Turkish Airlines","Filters":{"Routes":{"Direct":true,"Charter":false},"Seasons":{"Summer":true,"Winter":false}},"Weekdays":85,"Buttons":[{"MarkerButtonName":"Visit","0":"Visit","URL":"http:\/\/yahoo.com","1":"http:\/\/yahoo.com"},{"MarkerButtonName":"Buy","0":"Buy","URL":"http:\/\/google.com","1":"http:\/\/google.com"},{"MarkerButtonName":"Sell","0":"Sell","URL":"http:\/\/loyaltykey.dk","1":"http:\/\/loyaltykey.dk"}]},{"position":{"lat":55.9736482,"lng":37.4125029},"title":"Moscow","Airline":"SAS","Filters":{"Routes":{"Direct":false,"Charter":true},"Seasons":{"Summer":false,"Winter":true}},"Weekdays":13,"Buttons":[{"MarkerButtonName":"Buy","0":"Buy","URL":"http:\/\/google.com","1":"http:\/\/google.com"},{"MarkerButtonName":"Visit","0":"Visit","URL":"http:\/\/yahoo.com","1":"http:\/\/yahoo.com"},{"MarkerButtonName":"Sell","0":"Sell","URL":"http:\/\/loyaltykey.dk","1":"http:\/\/loyaltykey.dk"}]},{"position":{"lat":60.1975501,"lng":11.1004153},"title":"Oslo","Airline":"Norwegian","Filters":{"Routes":{"Direct":false,"Charter":true},"Seasons":{"Summer":true,"Winter":false}},"Weekdays":12,"Buttons":[{"MarkerButtonName":"Buy","0":"Buy","URL":"http:\/\/aar.dk","1":"http:\/\/aar.dk"}]},{"position":{"lat":59.6497622,"lng":17.9237807},"title":"Stockholm","Airline":"SAS","Filters":{"Routes":{"Direct":true,"Charter":false},"Seasons":{"Summer":true,"Winter":false}},"Weekdays":12,"Buttons":[{"MarkerButtonName":"Buy","0":"Buy","URL":"http:\/\/sas.com","1":"http:\/\/sas.com"}]}]